 {"List":[
   {"CityCode":"745044","CityName":"Istanbul","lat":"41.01384","lon":"28.949659"},
   {"CityCode":"1248991","CityName":"Colombo","lat":"6.93194","lon":"79.847778"},
   {"CityCode":"1819729","CityName":"Hong Kong","lat":"22.285521","lon":"114.157692"},
   {"CityCode":"1850147","CityName":"Tokyo","lat":"35.689499","lon":"139.691711"},
   {"CityCode":"1880252","CityName":"Singapore","lat":"1.28967","lon":"103.850067"},
   {"CityCode":"2644210","CityName":"Liverpool","lat":"53.41058","lon":"-2.97794"},
   {"CityCode":"292223","CityName":"Dubai","lat":"25.258169","lon":"55.304722"},
   {"CityCode":"2988507","CityName":"Paris","lat":"48.853409","lon":"2.3488"},
   {"CityCode":"2147714","CityName":"Sydney","lat":"-33.867851","lon":"151.207321"},
   {"CityCode":"3369157","CityName":"Cape Town","lat":"-33.925838","lon":"18.42322"},
   {"CityCode":"4930956","CityName":"Boston","lat":"42.358429","lon":"-71.059769"},
   {"CityCode":"1796236","CityName":"Shanghai","lat":"31.222219","lon":"121.458061"},
   {"CityCode":"3143244","CityName":"Oslo","lat":"59.912731","lon":"10.74609"},
   {"CityCode":"6167865","CityName":"Toronto","lat":"43.700111","lon":"-79.416298"}
 ]}